City_ID,City,Lat,Lng,Max Temp,Humidity,Cloudiness,Wind Speed,Country,Date
0,tura,25.5198,90.2201,23.01,36,65,1.69,IN,1712795363
1,bethel,41.3712,-73.414,14.93,78,100,2.57,US,1712795099
2,kerikeri,-35.2268,173.9474,21.06,92,100,7.46,NZ,1712795363
3,papao,-17.75,-149.55,30.82,83,89,8.93,PF,1712795236
4,utrik,11.2278,169.8474,26.74,78,99,10.06,MH,1712795364
5,constantia,44.1833,28.65,8.38,61,2,3.35,RO,1712795311
6,walvis bay,-22.9575,14.5053,13.53,94,5,2.06,NA,1712795243
7,turkmenbasy,40.0222,52.9552,17.43,36,0,6.17,TM,1712795364
8,oranjestad,12.524,-70.027,27.97,78,20,8.23,AW,1712795126
9,tiksi,71.6872,128.8694,-16.16,92,100,0.52,RU,1712795202
10,hotan,37.0997,79.9269,13.08,19,79,0.85,CN,1712795364
11,port-aux-francais,-49.35,70.2167,7.1,97,100,6.62,TF,1712795364
12,tazovsky,67.4667,78.7,-31.78,100,93,2.41,RU,1712795364
13,san rafael del yuma,18.4299,-68.6739,25.76,73,18,5.17,DO,1712795365
14,vila franca do campo,37.7167,-25.4333,18.27,99,100,4.36,PT,1712795365
15,santo amaro,-12.5467,-38.7119,24.23,91,81,1.48,BR,1712795365
16,grytviken,-54.2811,-36.5092,0.86,90,15,5.43,GS,1712795365
17,kimbe,-5.5502,150.1429,24.79,96,100,0.25,PG,1712795365
18,enewetak,11.3474,162.3373,27.15,81,100,9.97,MH,1712795213
19,dunedin,-45.8742,170.5036,13.22,99,100,2.68,NZ,1712795266
20,kununurra,-15.7667,128.7333,25.99,38,34,6.69,AU,1712795365
21,idri,27.5,13.2667,21.25,16,98,8.67,LY,1712795366
22,adamstown,-25.066,-130.1015,22.45,88,100,7.62,PN,1712795193
23,pariaman,-0.619,100.12,26.03,82,100,1.82,ID,1712795366
24,udachny,66.4167,112.4,-24.75,93,92,9.31,RU,1712795366
25,port lincoln,-34.7333,135.8667,16.47,62,57,3.2,AU,1712795366
26,rongelap,11.1635,166.8941,26.77,78,98,10.53,MH,1712795366
27,jamestown,42.097,-79.2353,14.8,51,100,1.54,US,1712795085
28,alexandria,31.2156,29.9553,16.3,70,7,2.41,EG,1712795366
29,ushuaia,-54.8,-68.3,6.81,76,20,7.2,AR,1712795366
30,nova sintra,14.8667,-24.7167,22.73,76,3,9.65,CV,1712795366
31,waitangi,-43.9535,-176.5597,17.68,87,80,5.36,NZ,1712795204
32,teluk nibung,3.001,99.8164,24.83,96,100,2.28,ID,1712795367
33,fort bragg,35.139,-79.006,22.91,65,40,2.57,US,1712795228
34,puerto natales,-51.7236,-72.4875,3.15,91,15,2.6,CL,1712795208
35,klaksvik,62.2266,-6.589,7.51,97,100,11.94,FO,1712795367
36,ribeira grande,38.5167,-28.7,17.1,100,75,5.14,PT,1712795367
37,iqaluit,63.7506,-68.5145,-2.15,79,100,4.63,CA,1712795217
38,edinburgh of the seven seas,-37.0676,-12.3116,17.84,81,67,2.92,SH,1712795367
39,isafjordur,66.0755,-23.124,-4.01,89,77,2.11,IS,1712795195
40,wailua homesteads,22.0669,-159.378,28.24,63,0,4.63,US,1712795367
41,dolores,-36.3132,-57.6792,9.4,61,53,3.16,AR,1712795367
42,college,64.8569,-147.8028,6.97,33,20,0.0,US,1712795367
43,sitka,57.0531,-135.33,3.94,87,100,9.26,US,1712795367
44,lihue,21.9789,-159.3672,28.58,62,0,4.63,US,1712795368
45,malmyzh,56.5205,50.6818,2.78,92,52,1.61,RU,1712795368
46,vadso,70.0744,29.7487,4.49,93,100,4.63,NO,1712795368
47,papatowai,-46.5619,169.4708,9.45,97,100,8.58,NZ,1712795368
48,bafia,4.75,11.2333,21.92,97,90,0.75,CM,1712795368
49,urangan,-25.3,152.9,25.11,66,19,4.92,AU,1712795368
50,invercargill,-46.4,168.35,9.45,98,100,3.58,NZ,1712795194
51,tomatlan,19.9333,-105.25,25.53,54,20,3.02,MX,1712795368
52,la'ie,21.6477,-157.9253,28.98,74,44,0.89,US,1712795368
53,the pas,53.8251,-101.2541,10.01,53,100,6.17,CA,1712795368
54,ust-nera,64.5667,143.2,-8.9,89,86,3.6,RU,1712795259
55,port alfred,-33.5906,26.891,16.97,67,95,6.24,ZA,1712795212
56,ridder,50.355,83.5133,1.2,98,100,2.34,KZ,1712795369
57,ilulissat,69.2167,-51.1,-7.99,62,100,0.0,GL,1712795201
58,okhotsk,59.3833,143.3,-2.55,67,6,6.08,RU,1712795369
59,avarua,-21.2078,-159.775,29.03,79,75,8.75,CK,1712795369
60,stephenville,32.2207,-98.2023,17.87,59,0,5.66,US,1712795360
61,vila velha,-20.3297,-40.2925,24.97,94,75,1.54,BR,1712795185
62,whitehorse,60.7161,-135.0538,8.43,31,75,7.72,CA,1712795369
63,nova vicosa,-17.8919,-39.3719,25.81,84,7,2.82,BR,1712795369
64,mbanza-ngungu,-5.25,14.8667,21.8,94,100,1.28,CD,1712795369
65,sandnessjoen,66.0217,12.6316,4.29,82,100,12.2,NO,1712795286
66,bilibino,68.0546,166.4372,-13.14,78,56,0.81,RU,1712795196
67,kavieng,-2.5744,150.7967,27.54,82,100,4.18,PG,1712795370
68,badger,64.8,-147.5333,6.93,33,20,0.0,US,1712795370
69,kismayo,-0.3582,42.5454,28.72,77,94,3.25,SO,1712795212
70,margaret river,-33.95,115.0667,14.93,69,13,5.41,AU,1712795205
71,namibe,-15.1961,12.1522,22.16,70,30,3.01,AO,1712795370
72,east london,-33.0153,27.9116,16.44,73,85,7.01,ZA,1712795370
73,hermanus,-34.4187,19.2345,14.33,72,13,8.45,ZA,1712795200
74,katsuren-haebaru,26.3369,127.8719,24.01,66,20,6.17,JP,1712795252
75,camocim,-2.9022,-40.8411,26.09,89,99,3.91,BR,1712795371
76,severo-yeniseyskiy,60.3725,93.0408,-16.72,96,100,1.43,RU,1712795371
77,mahdia,35.5047,11.0622,14.97,69,39,6.28,TN,1712795371
78,christchurch,-43.5333,172.6333,25.85,63,40,7.2,NZ,1712795101
79,aykhal,66.0,111.5,-25.62,97,72,8.03,RU,1712795371
80,port macquarie,-31.4333,152.9167,23.27,64,45,5.6,AU,1712795363
81,albany,42.6001,-73.9662,11.6,92,100,0.45,US,1712795355
82,oranjemund,-28.55,16.4333,15.17,87,0,4.21,NA,1712795371
83,blackmans bay,-43.0167,147.3167,14.07,61,53,0.89,AU,1712795371
84,haiku-pauwela,20.9219,-156.3051,28.01,61,20,7.72,US,1712795258
85,shagonar,51.5333,92.8,4.19,89,91,1.27,RU,1712795175
86,micheweni,-4.9667,39.8333,27.74,84,93,2.32,TZ,1712795371
87,hawaiian paradise park,19.5933,-154.9731,26.04,75,75,4.63,US,1712795371
88,acapulco de juarez,16.8634,-99.8901,25.9,78,75,6.17,MX,1712795257
89,nadi,-17.8,177.4167,31.0,66,20,5.14,FJ,1712795245
90,lerwick,60.1545,-1.1494,9.0,97,100,10.18,GB,1712795205
91,alice springs,-23.7,133.8833,19.01,34,5,6.17,AU,1712795372
92,west island,-12.1568,96.8225,26.99,74,40,4.12,CC,1712795372
93,afaahiti,-17.75,-149.2833,29.93,84,97,7.9,PF,1712795372
94,novyy urgal,51.0736,132.5642,3.81,55,65,1.6,RU,1712795372
95,khandyga,62.6667,135.6,-3.07,87,94,2.53,RU,1712795372
96,new plymouth,-39.0667,174.0833,19.06,83,100,10.02,NZ,1712795186
97,punta arenas,-53.15,-70.9167,7.06,76,40,8.23,CL,1712795372
98,tougue,11.4667,-11.6,29.55,24,99,0.68,GN,1712795372
99,anadyr,64.75,177.4833,-7.72,72,20,9.0,RU,1712795207
100,san antonio de pale,-1.4014,5.6325,28.29,81,90,4.31,GQ,1712795204
101,sajir,25.1825,44.5996,22.87,60,82,2.37,SA,1712795373
102,bredasdorp,-34.5322,20.0403,14.93,66,23,5.99,ZA,1712795216
103,ouesso,1.6136,16.0517,22.45,91,99,0.56,CG,1712795373
104,balabac,7.9868,117.0645,28.44,74,100,5.4,PH,1712795248
105,igarka,67.4667,86.5833,-29.99,98,25,3.58,RU,1712795373
106,port mathurin,-19.6833,63.4167,26.71,78,29,5.4,MU,1712795373
107,thunder bay,48.4001,-89.3168,6.99,76,75,4.12,CA,1712795372
108,dudinka,69.4058,86.1778,-31.85,100,100,1.34,RU,1712795195
109,fale old settlement,-9.3852,-171.2468,30.04,74,51,4.03,TK,1712795256
110,port blair,11.6667,92.75,27.02,94,40,1.03,IN,1712795373
111,kristiansund,63.1115,7.732,5.36,75,40,4.12,NO,1712795373
112,sao gabriel da cachoeira,-0.1303,-67.0892,24.83,96,100,1.13,BR,1712795373
113,bestobe,52.4994,73.0975,1.74,95,100,5.28,KZ,1712795374
114,atafu village,-8.5421,-172.5159,29.86,75,79,4.54,TK,1712795247
115,camiri,-20.05,-63.5167,21.63,99,100,1.56,BO,1712795374
116,camana,-16.6228,-72.7111,21.53,86,100,3.45,PE,1712795206
117,kalifornsky,60.4183,-151.29,4.19,65,75,3.6,US,1712795374
118,goz beida,13.95,20.55,27.92,9,8,3.47,TD,1712795374
119,lebu,-37.6167,-73.65,11.89,74,94,1.17,CL,1712795374
120,aleksandrovsk-sakhalinskiy,50.8975,142.1561,4.2,69,29,8.68,RU,1712795374
121,tazacorte,28.629,-17.9293,19.54,77,100,6.17,ES,1712795242
122,knyaze-volkonskoye,48.4642,135.4567,10.19,51,87,5.36,RU,1712795375
123,crane,31.3974,-102.3501,21.55,18,0,7.84,US,1712795242
124,katghora,22.5,82.55,24.84,46,100,1.34,IN,1712795375
125,yellowknife,62.456,-114.3525,1.34,85,20,3.6,CA,1712795096
126,uturoa,-16.7333,-151.4333,28.96,78,34,8.06,PF,1712795375
127,sosua,19.7667,-70.5167,24.99,78,20,0.0,DO,1712795375
128,vilyuchinsk,52.9306,158.4028,4.58,72,79,15.64,RU,1712795216
129,xining,36.6167,101.7667,7.13,40,0,1.08,CN,1712795150
130,stanley,54.868,-1.6985,13.01,88,75,5.14,GB,1712795196
131,puerto aysen,-45.4,-72.7,4.5,95,0,1.15,CL,1712795122
132,pandan,14.0453,124.1694,27.03,75,98,3.46,PH,1712795229
133,saudarkrokur,65.7461,-19.6394,-2.48,85,100,2.2,IS,1712795376
134,piterka,50.6803,47.4454,13.21,76,88,4.86,RU,1712795376
135,ulan bator,47.9077,106.8832,5.07,60,40,1.0,MN,1712795376
136,ola,59.5833,151.2833,-2.7,61,2,2.54,RU,1712795215
137,puerto ayora,-0.7393,-90.3518,25.86,98,73,2.53,EC,1712795376
138,hovd,48.0056,91.6419,4.65,47,99,1.85,MN,1712795376
139,tolanaro,-25.0319,46.9987,24.04,94,40,1.03,MG,1712795376
140,saipan,15.1355,145.701,31.39,62,40,8.23,MP,1712795236
141,amungan,15.3652,119.9582,29.62,60,59,1.37,PH,1712795376
142,santa ana de yacuma,-13.75,-65.4333,26.07,88,85,2.97,BO,1712795376
143,nuku'alofa,-21.1333,-175.2,29.19,74,40,7.47,TO,1712795377
144,bondoukou,8.0333,-2.8,25.44,80,100,3.15,CI,1712795377
145,caister-on-sea,52.6481,1.7265,13.13,95,100,8.69,GB,1712795377
146,sinop,41.7711,34.8709,9.3,82,82,1.64,TR,1712795377
147,polyarnyy,69.1989,33.4478,3.29,90,100,9.4,RU,1712795270
148,gemena,3.25,19.7667,23.79,82,74,1.09,CD,1712795377
149,kapuskasing,49.4169,-82.4331,11.05,58,40,1.54,CA,1712795377
150,petropavlovsk-kamchatsky,53.0452,158.6483,3.76,70,20,16.09,RU,1712795275
151,longyearbyen,78.2186,15.6401,-15.09,72,20,5.66,SJ,1712795278
152,punta alta,-38.8759,-62.0736,13.38,55,98,2.98,AR,1712795186
153,taksimo,56.3444,114.8794,-4.63,84,97,0.44,RU,1712795378
154,nemuro,43.3236,145.575,4.79,63,68,3.73,JP,1712795228
155,tambura,5.6,27.4667,24.52,42,53,0.95,SS,1712795378
156,posto fiscal rolim de moura,-13.0833,-62.2667,25.65,89,67,1.11,BR,1712795284
157,ulsteinvik,62.3432,5.8487,6.5,77,85,2.24,NO,1712795378
158,fort-shevchenko,44.5086,50.263,15.4,50,100,6.1,KZ,1712795378
159,olonkinbyen,70.9221,-8.7187,-6.81,74,100,5.67,SJ,1712795378
160,ciudad lazaro cardenas,17.9583,-102.2,26.62,65,30,5.23,MX,1712795378
161,talnakh,69.4865,88.3972,-32.11,100,80,1.57,RU,1712795378
162,yuzhno-kurilsk,44.0306,145.8556,4.65,76,30,3.31,RU,1712795300
163,rawalpindi,33.6007,73.0679,18.46,67,84,1.73,PK,1712795378
164,mount pearl,47.5166,-52.7813,-1.03,79,100,4.63,CA,1712795379
165,sorsk,54.0033,90.2467,0.82,95,100,1.01,RU,1712795379
166,mwinilunga,-11.7358,24.4293,18.06,98,100,1.24,ZM,1712795379
167,kapa'a,22.0752,-159.319,28.99,70,0,4.63,US,1712795159
168,noumea,-22.2763,166.4572,27.78,99,94,5.34,NC,1712795379
169,igbo-ora,7.4333,3.2833,26.53,77,100,1.56,NG,1712795379
170,wiradesa,-6.8922,109.619,26.81,84,100,1.2,ID,1712795380
171,puerto cabezas,14.0351,-83.3888,27.61,74,95,3.46,NI,1712795380
172,georgetown,5.4112,100.3354,27.19,84,20,1.54,MY,1712795320
173,minas de marcona,-15.2119,-75.1103,17.62,82,96,5.59,PE,1712795380
174,ruiz,21.95,-105.15,27.85,38,7,3.96,MX,1712795380
175,pisco,-13.7,-76.2167,22.03,83,0,4.63,PE,1712795380
176,mochudi,-24.4167,26.15,16.73,54,0,2.7,BW,1712795380
177,vodnyy,63.5046,53.4095,-1.44,97,100,2.31,RU,1712795380
178,hamilton,39.1834,-84.5333,17.1,96,100,1.54,US,1712795155
179,bereznik,62.8551,42.7072,4.88,91,100,5.12,RU,1712795380
180,fisterra,42.9049,-9.2629,12.08,75,100,3.89,ES,1712795381
181,tamanrasset,22.785,5.5228,24.95,12,20,5.14,DZ,1712795381
182,thompson,55.7435,-97.8558,9.09,49,100,4.63,CA,1712795381
183,remire-montjoly,4.9167,-52.2667,28.02,83,75,2.06,GF,1712795381
184,palmer,42.1584,-72.3287,14.73,69,100,2.06,US,1712795222
185,kone,-21.0595,164.8658,24.5,97,95,1.57,NC,1712795381
186,port augusta,-32.5,137.7667,17.9,54,2,3.66,AU,1712795381
187,las tablas,7.7667,-80.2833,27.32,99,74,1.84,PA,1712795381
188,smithers,54.7804,-127.1743,8.18,49,100,4.12,CA,1712795196
189,bougouni,11.417,-7.479,28.48,54,87,2.28,ML,1712795382
190,aral,40.5156,81.2636,14.42,93,6,3.31,CN,1712795382
191,yanam,16.7333,82.2167,23.02,93,35,0.59,IN,1712795382
192,todos santos,23.45,-110.2167,26.28,63,8,3.83,MX,1712795382
193,dryden,49.7833,-92.7503,12.16,43,75,1.54,CA,1712795382
194,usinsk,65.9939,57.5281,-16.63,94,71,3.58,RU,1712795382
195,horta,38.5333,-28.6333,16.68,97,75,5.14,PT,1712795238
196,fortuna,40.5982,-124.1573,16.07,83,0,7.2,US,1712795382
197,kodiak,57.79,-152.4072,2.73,56,20,3.6,US,1712795136
198,castillos,-34.1667,-53.8333,14.39,61,78,4.71,UY,1712795383
199,mirnyy,62.5353,113.9611,-12.09,83,100,3.58,RU,1712795383
200,codrington,-38.2667,141.9667,14.35,66,96,4.63,AU,1712795252
201,colonia,50.9333,6.95,9.9,73,0,2.57,DE,1712795252
202,tara,56.8944,74.371,-3.7,88,100,2.84,RU,1712795383
203,qaqortoq,60.7167,-46.0333,-5.04,97,90,1.02,GL,1712795355
204,la passe,45.5549,-0.8967,12.21,80,99,1.83,FR,1712795383
205,adolfo lopez mateos,28.4667,-107.3,19.96,10,0,3.93,MX,1712795383
206,sangod,24.9167,76.2833,25.11,45,65,1.86,IN,1712795383
207,nakanojomachi,36.5833,138.85,13.23,37,50,0.45,JP,1712795383
208,cutral-co,-38.9469,-69.2089,9.39,10,100,0.89,AR,1712795383
209,maceio,-9.6658,-35.7353,25.69,88,0,2.06,BR,1712795383
210,labrador city,52.9463,-66.9114,-0.05,40,0,2.57,CA,1712795383
211,la crosse,43.8014,-91.2396,19.31,40,100,0.0,US,1712795275
212,geneina,13.45,22.45,25.36,8,17,6.07,SD,1712795384
213,boksitogorsk,59.474,33.8485,8.67,77,100,5.12,RU,1712795384
214,tuy hoa,13.0833,109.3,25.43,85,30,0.82,VN,1712795202
215,hithadhoo,-0.6,73.0833,29.52,71,85,3.54,MV,1712795211
216,vizinga,61.0749,50.1031,0.9,93,69,3.24,RU,1712795384
217,yevpatoriya,45.1972,33.3558,12.13,63,0,4.23,UA,1712795146
218,wynyard,-41.0,145.7167,14.56,57,20,1.85,AU,1712795244
219,domanic,39.8,29.6167,8.23,86,1,1.75,TR,1712795384
220,belyy yar,53.6039,91.3903,3.94,81,40,2.0,RU,1712795384
221,sumbawa besar,-8.5,117.4333,27.02,90,84,1.16,ID,1712795384
222,lagunas,-5.2269,-75.6753,26.47,80,86,1.09,PE,1712795385
223,sarkand,45.41,79.9186,8.4,74,100,1.88,KZ,1712795385
224,suncho corral,-27.9336,-63.4294,18.92,88,100,4.29,AR,1712795385
225,howrah,22.5892,88.3103,25.0,83,75,0.0,IN,1712795385
226,sala,34.0389,-6.8166,9.38,100,8,0.0,MA,1712795127
227,iskateley,67.6803,53.1512,-8.88,93,99,7.15,RU,1712795385
228,luderitz,-26.6481,15.1594,21.87,48,0,5.62,NA,1712795385
229,happy valley-goose bay,53.3168,-60.3315,0.17,69,0,1.03,CA,1712795243
230,soufriere,13.8562,-61.0566,27.78,75,20,8.23,LC,1712795200
231,pacasmayo,-7.4006,-79.5714,23.06,76,59,5.68,PE,1712795385
232,kidal,18.4411,1.4078,30.2,8,23,2.74,ML,1712795175
233,sombrio,-29.1139,-49.6167,22.74,91,86,2.46,BR,1712795385
234,zhanga buqtyrma,49.6295,83.5248,2.71,96,100,1.31,KZ,1712795385
235,rosarito,32.3333,-117.0333,26.8,59,0,3.99,MX,1712795386
236,argo,37.6333,22.7333,15.78,50,99,1.97,GR,1712795386
237,pudasjarvi,65.3833,26.9167,2.96,96,100,5.92,FI,1712795386
238,pamandzi,-12.7967,45.2794,27.88,89,40,1.03,YT,1712795386
239,fort st. john,56.2499,-120.8529,7.94,31,75,7.72,CA,1712795225
240,al jaradiyah,16.5795,42.9124,29.72,72,2,3.6,SA,1712795386
241,kolpashevo,58.3131,82.9089,-8.27,84,100,2.24,RU,1712795386
242,port elizabeth,-33.918,25.5701,13.94,87,0,2.57,ZA,1712795246
243,ngereklmadel,7.4883,134.4856,30.05,74,75,3.09,PW,1712795386
244,uliastay,47.7417,96.8444,2.49,56,98,1.66,MN,1712795386
245,pakse,15.1167,105.7833,28.08,78,20,2.06,LA,1712795386
246,takoradi,4.8845,-1.7554,27.61,84,100,2.4,GH,1712795386
247,vorgashor,67.5833,63.95,-26.33,100,100,1.86,RU,1712795386
248,amga,60.8953,131.9608,0.62,100,98,2.45,RU,1712795247
249,plettenberg bay,-34.0527,23.3716,15.05,77,99,2.05,ZA,1712795386
250,san gil,6.5557,-73.1331,21.56,92,3,0.47,CO,1712795387
251,nasir,15.5894,32.5634,27.42,12,0,6.04,SD,1712795387
252,pekalongan,-6.8886,109.6753,26.9,84,99,1.1,ID,1712795387
253,novyy urengoy,66.0833,76.6333,-29.25,100,94,2.55,RU,1712795342
254,sinabang,2.4803,96.3801,26.57,82,100,1.44,ID,1712795387
255,sao raimundo nonato,-9.0153,-42.6994,26.77,60,47,1.65,BR,1712795387
256,benjamin constant,-4.3831,-70.0311,27.07,96,100,1.17,BR,1712795387
257,banff,51.1762,-115.5698,8.57,23,100,4.12,CA,1712795208
258,hilo,19.7297,-155.09,26.82,70,75,4.63,US,1712795204
259,manali,13.1667,80.2667,28.96,81,98,1.6,IN,1712795387
260,umm kaddadah,13.6017,26.6876,24.63,9,0,6.52,SD,1712795387
261,prado,-17.3411,-39.2208,26.03,82,6,2.69,BR,1712795387
262,saint-francois,46.4154,3.9054,3.56,93,0,0.0,FR,1712795387
263,salalah,17.0151,54.0924,26.05,73,40,1.54,OM,1712795253
264,salinopolis,-0.6136,-47.3561,26.66,84,71,4.02,BR,1712795387
265,bubaque,11.2833,-15.8333,23.97,74,3,7.65,GW,1712795387
266,leua,48.2156,18.6071,10.83,83,100,2.17,SK,1712795388
267,bonthe,7.5264,-12.505,25.78,90,80,2.33,SL,1712795388
268,kourou,5.1552,-52.6478,28.03,89,96,3.72,GF,1712795210
269,betio village,1.358,172.9211,31.02,79,100,4.9,KI,1712795388
270,brigham city,41.5102,-112.0155,16.42,51,19,1.34,US,1712795388
271,callao,-12.0667,-77.15,23.16,73,0,4.63,PE,1712795116
272,saint-pierre,-21.3393,55.4781,24.82,69,0,3.6,RE,1712795388
273,darnah,32.767,22.6367,15.31,78,2,5.81,LY,1712795388
274,floro,61.5996,5.0328,5.98,70,100,7.2,NO,1712795207
275,arecibo,18.4724,-66.7157,26.67,83,83,0.45,PR,1712795348
276,el granada,37.5027,-122.4694,27.54,64,0,7.2,US,1712795388
277,marsh harbour,26.5412,-77.0636,23.14,72,63,8.75,BS,1712795297
278,lashio,22.9333,97.75,20.32,39,37,0.6,MM,1712795388
279,xixiang,35.1628,112.865,19.26,53,85,1.7,CN,1712795389
280,inarajan village,13.2736,144.7484,30.08,90,96,8.12,GU,1712795389
281,nadym,65.5333,72.5167,-30.58,100,91,0.12,RU,1712795226
282,san patricio,28.017,-97.5169,26.05,35,0,8.01,US,1712795389
283,mzimba,-11.9,33.6,17.41,89,93,1.97,MW,1712795123
284,fort mcmurray,56.7268,-111.381,10.77,46,0,5.14,CA,1712795240
285,chonchi,-42.6128,-73.8092,8.56,80,0,0.79,CL,1712795149
286,narasannapeta,18.4167,84.05,24.83,71,1,1.3,IN,1712795389
287,kudahuvadhoo,2.6708,72.8944,29.54,67,26,3.52,MV,1712795389
288,eraan,9.0629,117.7016,28.97,65,45,1.63,PH,1712795389
289,santa maria do para,-1.3503,-47.5756,25.28,93,94,2.21,BR,1712795389
290,nizhneudinsk,54.9076,99.0276,1.83,96,100,1.9,RU,1712795389
291,lensk,60.7253,114.9278,-0.05,98,100,1.81,RU,1712795389
292,kailua-kona,19.6406,-155.9956,27.98,74,20,4.12,US,1712795235
293,sao miguel do araguaia,-13.275,-50.1628,25.64,78,96,1.44,BR,1712795389
294,saint-joseph,-21.3667,55.6167,24.21,77,84,2.49,RE,1712795389
295,kirakira,-10.4544,161.9205,30.63,58,94,2.38,SB,1712795254
296,arkhangel'sk,64.5401,40.5433,6.18,100,100,5.0,RU,1712795390
297,hadibu,12.65,54.0333,26.7,79,18,3.01,YE,1712795390
298,banda aceh,5.5577,95.3222,27.34,77,90,1.39,ID,1712795390
299,lorengau,-2.0226,147.2712,27.46,82,100,1.54,PG,1712795211
300,opuwo,-18.0607,13.84,18.83,49,0,0.79,NA,1712795390
301,tucuma,-0.1833,-50.05,25.67,90,80,2.59,BR,1712795390
302,borba,-4.3878,-59.5939,25.44,89,78,1.58,BR,1712795390
303,formosa do rio preto,-11.0483,-45.1931,27.12,56,83,0.85,BR,1712795390
304,vuktyl,63.8567,57.3094,-7.16,97,74,1.79,RU,1712795390
305,klyuchi,52.2667,79.1667,3.03,97,100,0.97,RU,1712795390
306,viedma,-40.8135,-62.9967,10.39,58,73,2.07,AR,1712795161
307,ulety,51.3572,112.4849,7.98,68,97,1.72,RU,1712795390
308,necochea,-38.5473,-58.7368,11.96,69,91,5.33,AR,1712795259
309,antonio enes,-16.2325,39.9086,25.44,86,94,3.17,MZ,1712795390
310,ponta grossa,-25.095,-50.1619,20.98,67,34,3.19,BR,1712795390
311,cabo san lucas,22.8909,-109.9124,24.31,51,40,5.14,MX,1712795316
312,gimbi,9.1667,35.8333,17.74,29,87,1.45,ET,1712795391
313,sanctuary point,-35.1114,150.629,20.42,54,12,4.96,AU,1712795391
314,topchikha,52.8192,83.1185,1.31,96,100,1.45,RU,1712795391
315,kasongo-lunda,-6.4667,16.8167,22.17,97,74,0.2,CD,1712795391
316,phitsanulok,16.9167,100.5,25.06,63,100,0.81,TH,1712795391
317,harlingen,26.1906,-97.6961,30.97,21,0,10.29,US,1712795183
318,kalmunai,7.4167,81.8167,26.54,82,99,0.86,LK,1712795232
319,nefteyugansk,61.0998,72.6035,-13.49,93,100,3.12,RU,1712795391
320,tvoroyri,61.5556,-6.8111,7.31,98,100,6.44,FO,1712795391
321,kerch,45.3583,36.4758,13.09,81,15,6.26,UA,1712795391
322,huangmei,30.1924,116.025,18.47,91,100,1.24,CN,1712795391
323,warsaw,52.2298,21.0118,13.3,65,0,6.17,PL,1712795223
324,fuerte olimpo,-21.0415,-57.8738,28.13,68,100,1.55,PY,1712795391
325,yoichi,43.2039,140.7703,8.16,57,23,1.22,JP,1712795392
326,mutoko,-17.397,32.2268,19.13,87,99,1.38,ZW,1712795392
327,magadan,59.5667,150.8,-3.04,64,15,1.34,RU,1712795245
328,kingston,17.997,-76.7936,28.53,74,20,8.75,JM,1712795258
329,aasiaat,68.7098,-52.8699,-8.82,81,100,1.72,GL,1712795208
330,karukh,34.4811,62.5863,13.71,55,2,0.78,AF,1712795392
331,egilsstadir,65.2653,-14.3948,1.95,80,75,4.63,IS,1712795392
332,longboat key,27.4125,-82.659,26.02,62,0,8.23,US,1712795197
333,naze,28.3667,129.4833,19.51,66,99,3.32,JP,1712795234
334,dededo village,13.5178,144.8391,29.44,73,40,8.75,GU,1712795392
335,little falls,40.869,-74.2082,16.88,76,75,3.6,US,1712795392
336,stuttgart,48.7823,9.177,7.11,82,0,0.51,DE,1712795231
337,tshikapa,-6.4167,20.8,23.3,91,88,0.64,CD,1712795392
338,mar del plata,-38.0023,-57.5575,14.37,67,75,6.71,AR,1712795368
339,kalianget,-7.05,113.9333,27.85,79,95,1.19,ID,1712795392
340,villa madero,19.4,-101.2667,22.64,26,63,4.19,MX,1712795167
341,kloulklubed,7.0419,134.2556,30.28,77,92,6.41,PW,1712795392
342,laojunmiao,39.8333,97.7333,9.65,15,53,2.75,CN,1712795239
343,coahuayana de hidalgo,18.7,-103.6583,25.37,64,27,2.34,MX,1712795393
344,island harbour,50.724,-1.2758,12.39,94,100,3.58,GB,1712795393
345,tual,-5.6667,132.75,28.73,70,74,4.49,ID,1712795233
346,wamba,8.9333,8.6,29.82,36,99,1.13,NG,1712795393
347,huangnihe,43.5583,128.0239,7.61,78,100,3.13,CN,1712795393
348,gaigeturi,33.4644,126.3183,14.03,82,100,0.51,KR,1712795393
349,pomorie,42.5588,27.6439,9.24,100,0,3.09,BG,1712795393
350,nadvoitsy,63.8667,34.3167,5.91,89,100,6.55,RU,1712795393
351,tocopilla,-22.092,-70.1979,20.78,79,95,3.41,CL,1712795149
352,hargeysa,9.56,44.065,22.11,75,17,1.8,SO,1712795393
353,kerman,30.2832,57.0788,15.92,41,0,4.12,IR,1712795240
354,hammerfest,70.6634,23.6821,2.25,100,100,3.09,NO,1712795283
355,mogadishu,2.0371,45.3438,29.01,73,26,4.62,SO,1712795393
356,greymouth,-42.4667,171.2,16.12,94,100,4.83,NZ,1712795394
357,novodvinsk,64.4165,40.8122,5.99,100,100,5.6,RU,1712795394
358,petal,31.3466,-89.2601,19.29,94,100,4.63,US,1712795304
359,westport,41.1415,-73.3579,14.77,84,100,5.14,US,1712795322
360,cockburn town,21.4612,-71.1419,25.02,71,30,10.93,TC,1712795304
361,shimanovsk,52.0,127.7,5.46,52,6,0.56,RU,1712795225
362,buka,40.8108,69.1986,12.65,71,0,0.89,UZ,1712795394
363,gordon,34.5004,-84.8666,20.29,91,20,3.09,US,1712795394
364,priargunsk,50.3691,119.1012,-2.47,76,100,2.06,RU,1712795394
365,jiangyou,31.7667,104.7167,16.4,78,100,1.07,CN,1712795394
366,tinajo,29.0788,-13.7081,24.49,41,0,9.77,ES,1712795394
367,carnarvon,-24.8667,113.6333,24.15,56,5,5.28,AU,1712795394
368,mount gambier,-37.8333,140.7667,14.47,63,100,2.79,AU,1712795351
369,acarau,-2.8856,-40.12,26.42,86,100,3.54,BR,1712795395
370,nuuk,64.1835,-51.7216,-2.66,86,100,0.51,GL,1712795395
371,tanout,14.9709,8.8879,28.41,9,60,4.84,NE,1712795395
372,matane,48.8286,-67.522,2.39,79,17,4.15,CA,1712795395
373,as sulayyil,20.4607,45.5779,29.14,50,21,2.13,SA,1712795210
374,solnechnyy,50.7214,136.6319,3.35,46,37,2.66,RU,1712795395
375,mbandaka,0.0487,18.2603,23.79,85,64,0.8,CD,1712795239
376,pacific grove,36.6177,-121.9166,24.25,75,0,2.06,US,1712795395
377,paracuru,-3.41,-39.0306,27.28,90,100,2.9,BR,1712795395
378,chadron,42.8294,-102.9999,11.09,30,0,11.83,US,1712795369
379,bargaal,11.2864,51.0773,26.11,83,16,0.95,SO,1712795395
380,roma,43.2128,-75.4557,15.38,91,100,1.54,US,1712795202
381,minab,27.1467,57.0801,26.2,55,100,0.76,IR,1712795230
382,susuman,62.7833,148.1667,-15.57,93,89,0.89,RU,1712795237
383,kabalo,-6.05,26.9167,21.95,96,95,0.97,CD,1712795395
384,griffith,41.5284,-87.4237,16.96,63,100,2.57,US,1712795395
385,puerto baquerizo moreno,-0.9,-89.6,26.02,82,86,2.38,EC,1712795395
386,ljusdal,61.8288,16.0913,2.49,78,53,4.52,SE,1712795396
387,chinchilla,-26.75,150.6333,18.99,47,0,2.36,AU,1712795396
388,nar'yan-mar,67.6713,53.087,-8.83,93,98,7.15,RU,1712795396
389,antofagasta,-23.65,-70.4,18.6,85,100,3.09,CL,1712795170
390,muynoq,43.7683,59.0214,13.96,41,6,1.0,UZ,1712795396
391,al jawf,29.5,38.75,15.43,56,0,4.17,SA,1712795396
392,brumado,-14.2036,-41.6653,25.75,72,100,2.67,BR,1712795396
393,las khorey,11.1595,48.1967,27.37,78,0,2.1,SO,1712795396
394,yerofey pavlovich,53.9667,121.9667,0.34,64,12,1.08,RU,1712795396
395,choyr,46.3611,108.3611,9.14,40,100,4.08,MN,1712795193
396,karratha,-20.7377,116.8463,26.57,44,13,6.4,AU,1712795223
397,peace river,56.2501,-117.286,11.17,20,75,3.6,CA,1712795253
398,lamu,-2.2717,40.902,28.04,86,93,3.67,KE,1712795297
399,paulsstadt,53.6328,11.4037,8.1,90,11,2.24,DE,1712795396
400,krasnaya gorbatka,55.8703,41.7641,10.23,90,53,3.62,RU,1712795396
401,camapua,-19.5314,-54.0439,23.95,88,87,1.3,BR,1712795397
402,serhetabat,35.2799,62.3438,11.56,64,7,0.6,TM,1712795226
403,port moresby,-9.4431,147.1797,29.68,74,75,2.06,PG,1712795397
404,sokhumi,43.0033,41.0153,12.47,94,100,1.65,GE,1712795397
405,zarand,30.8127,56.564,18.36,43,38,2.13,IR,1712795397
406,ta`u,-14.2336,-169.5144,29.18,77,3,3.73,AS,1712795397
407,cururupu,-1.8283,-44.8683,23.38,100,99,0.44,BR,1712795397
408,alavus,62.5833,23.6167,4.21,82,100,6.87,FI,1712795397
409,inongo,-1.95,18.2667,24.0,87,82,1.71,CD,1712795397
410,port-vila,-17.7338,168.3219,31.78,66,20,2.57,VU,1712795309
411,kanevskaya,46.0849,38.9596,16.09,64,79,4.51,RU,1712795397
412,newman,37.3138,-121.0208,27.13,48,89,2.68,US,1712795397
413,mogoytuy,51.2833,114.9167,7.8,69,89,5.33,RU,1712795397
414,flying fish cove,-10.4217,105.6791,26.82,83,75,3.09,CX,1712795216
415,hami,42.8,93.45,11.54,43,4,5.16,CN,1712795255
416,wagar,16.1525,36.2032,25.17,32,10,5.52,SD,1712795398
417,pangkalanbuun,-2.6833,111.6167,25.08,95,97,1.1,ID,1712795398
418,metlili chaamba,32.2667,3.6333,16.52,48,2,2.57,DZ,1712795398
419,poteau,35.0537,-94.6236,13.86,88,100,5.14,US,1712795398
420,dhidhdhoo,6.8833,73.1,29.27,70,7,2.28,MV,1712795398
421,mudau,49.5344,9.2044,5.65,81,3,1.03,DE,1712795398
422,trinity beach,-16.7888,145.6968,29.47,69,40,5.66,AU,1712795398
423,porto velho,-8.7619,-63.9039,27.03,94,40,0.0,BR,1712795359
424,saint-philippe,-21.3585,55.7679,24.77,79,86,3.75,RE,1712795267
425,chengde,40.9725,117.9361,10.21,75,9,0.37,CN,1712795398
426,luganville,-15.5333,167.1667,30.15,63,52,1.77,VU,1712795398
427,zhuanghe,39.7008,122.9911,10.1,76,70,3.28,CN,1712795398
428,vilyuysk,63.7553,121.6247,-1.67,93,100,3.13,RU,1712795399
429,seydi,39.4816,62.9137,16.01,39,100,4.31,TM,1712795399
430,bull savanna,17.8868,-77.5902,24.79,82,1,7.06,JM,1712795399
431,mangrol,21.1167,70.1167,25.22,75,83,3.61,IN,1712795399
432,amahai,-3.3333,128.9167,27.82,78,92,0.82,ID,1712795400
433,rapla,59.0072,24.7928,6.84,80,1,6.19,EE,1712795400
434,bardai,11.65,7.2333,27.74,23,43,3.45,NG,1712795400
435,trail,49.0998,-117.7022,12.82,51,79,0.27,CA,1712795401
436,mammoth lakes,37.6485,-118.9721,16.4,26,0,7.2,US,1712795401
437,cambria,35.5641,-121.0808,28.41,74,68,2.9,US,1712795335
438,malanje,-9.5402,16.341,18.78,98,38,0.96,AO,1712795167
439,manggar,-2.8833,108.2667,27.72,81,97,2.0,ID,1712795402
440,kyren,51.6828,102.1408,5.53,88,100,0.89,RU,1712795403
441,machali,-34.1833,-70.6667,18.46,33,100,0.07,CL,1712795404
442,yanbu,24.0891,38.0637,22.02,37,0,3.6,SA,1712795404
443,malkinia gorna,52.6922,22.0284,9.38,64,100,4.12,PL,1712795404
444,st. john's,47.5649,-52.7093,-0.57,79,100,4.63,CA,1712795120
445,celestun,20.8667,-90.4,28.09,71,100,3.37,MX,1712795405
446,darwin,-12.4611,130.8418,26.64,53,0,5.66,AU,1712795124
447,weyburn,49.6668,-103.8511,9.12,37,99,10.29,CA,1712795405
448,al bardiyah,31.7561,25.0865,15.16,84,0,5.64,LY,1712795405
449,zanjan,36.6736,48.4787,7.73,83,100,1.55,IR,1712795405
450,brookings,44.3114,-96.7984,14.58,49,40,6.69,US,1712795260
451,choibalsan,48.0667,114.5,13.08,34,100,4.67,MN,1712795406
452,skowhegan,44.7651,-69.7192,5.54,96,100,1.86,US,1712795243
453,salekhard,66.53,66.6019,-28.67,100,83,0.89,RU,1712795395
454,salina cruz,16.1667,-95.2,27.77,71,93,1.79,MX,1712795406
455,wangqing,43.3218,129.7634,6.18,88,100,1.53,CN,1712795406
456,korla,41.7597,86.1469,14.6,25,9,4.69,CN,1712795406
457,challapata,-18.9,-66.7667,14.84,39,100,2.48,BO,1712795406
458,inhambane,-23.865,35.3833,23.4,72,100,5.48,MZ,1712795406
459,jalingo,8.8833,11.3667,28.26,37,100,1.14,NG,1712795407
460,pathein,16.7833,94.7333,29.83,54,0,2.02,MM,1712795407
461,ciudad satelite,19.5167,-99.25,25.49,20,5,5.15,MX,1712795407
462,tannum sands,-23.9504,151.3693,24.94,38,0,3.09,AU,1712795407
463,sa dec,10.3,105.7667,27.99,53,2,7.24,VN,1712795407
464,inirida,3.8653,-67.9239,27.63,70,0,0.76,CO,1712795407
465,messina,38.1933,15.5497,15.75,74,20,6.17,IT,1712795354
466,xocali,39.913,46.7903,11.63,97,100,1.55,AZ,1712795407
467,cabedelo,-6.9811,-34.8339,27.37,83,100,2.34,BR,1712795407
468,zaraza,9.3503,-65.3245,27.44,61,5,5.06,VE,1712795407
469,dondukovskaya,44.8819,40.3627,14.13,86,96,3.36,RU,1712795407
470,vanino,49.0869,140.2543,8.85,28,100,3.34,RU,1712795408
471,boa vista,2.8197,-60.6733,32.99,43,20,5.66,BR,1712795245
472,kagizman,40.1567,43.1342,8.15,90,100,1.82,TR,1712795408
473,santa cruz,-17.8,-63.1667,25.7,89,75,2.06,BO,1712795268
474,portland,45.5234,-122.6762,19.99,38,75,3.6,US,1712795180
475,beyneu,45.3167,55.2,16.55,45,46,3.14,KZ,1712795408
476,xai-xai,-25.0519,33.6442,22.6,77,95,7.81,MZ,1712795408
477,sur,22.5667,59.5289,28.44,53,98,1.07,OM,1712795408
478,angaur state,6.906,134.13,28.27,77,100,6.49,PW,1712795408
479,qiancheng,27.185,109.7654,17.15,96,100,0.76,CN,1712795408
480,tongouson,5.0214,120.1328,27.95,75,100,1.85,PH,1712795408
481,colon,9.3592,-79.9014,27.21,89,100,2.29,PA,1712795408
482,beberibe,-4.1797,-38.1306,26.02,87,100,1.44,BR,1712795408
483,sabha,27.0377,14.4283,20.03,18,100,8.68,LY,1712795409
484,ugoofaaru,5.6667,73.0,29.5,73,13,3.98,MV,1712795409
485,raja,8.4596,25.678,25.64,20,44,0.58,SS,1712795409
486,touba,8.2833,-7.6833,24.07,89,100,1.38,CI,1712795409
487,portage la prairie,49.9728,-98.2926,11.17,51,100,6.5,CA,1712795380
488,makurazaki,31.2667,130.3167,17.91,75,100,5.91,JP,1712795409
489,nagqu,31.5,92.0,-5.47,60,62,1.63,CN,1712795409
490,royal wootton bassett,51.5419,-1.9045,12.71,91,100,5.66,GB,1712795409
491,quellon,-43.1167,-73.6167,8.51,83,0,3.69,CL,1712795308
492,murzuq,25.9155,13.9184,22.31,19,93,8.54,LY,1712795292
493,waupaca,44.358,-89.086,18.23,45,100,0.0,US,1712795161
494,yigo village,13.5361,144.8886,29.16,73,75,8.75,GU,1712795409
495,ust'-ilimsk,58.0006,102.6619,-1.42,94,100,4.02,RU,1712795299
496,filipstad,59.7124,14.1683,3.88,83,100,5.05,SE,1712795409
497,kilju,40.9642,129.3278,12.15,55,100,1.81,KP,1712795410
498,broome,42.2506,-75.833,14.94,89,100,1.54,US,1712795410
499,jining,35.405,116.5814,20.27,62,37,3.27,CN,1712795410
500,san luis de la loma,17.2706,-100.8939,25.31,78,98,3.67,MX,1712795410
501,mata-utu,-13.2816,-176.1745,29.63,75,15,5.12,WF,1712795410
502,aleg,17.0481,-13.9209,29.16,16,0,5.39,MR,1712795410
503,arteche,12.2645,125.4048,27.73,77,100,3.99,PH,1712795410
504,labytnangi,66.6572,66.4183,-28.68,100,97,0.3,RU,1712795410
505,cidade velha,14.9167,-23.6167,22.26,68,20,5.66,CV,1712795410
506,pecos,31.4229,-103.4932,23.46,15,0,6.17,US,1712795410
507,sisimiut,66.9395,-53.6735,-6.04,76,100,2.12,GL,1712795293
508,kirawsk,53.2686,29.4736,13.82,86,100,5.88,BY,1712795410
509,pizarro,4.9533,-77.366,26.39,88,96,1.64,CO,1712795410
510,isabela,6.7085,121.9711,25.03,65,96,1.82,PH,1712795217
511,es castell,39.8795,4.2854,15.38,51,75,10.8,ES,1712795411
512,pangody,65.85,74.4859,-30.21,100,100,0.66,RU,1712795411
513,cape canaveral,28.4058,-80.6048,25.05,78,0,10.29,US,1712795411
514,smara,26.7384,-11.6719,31.02,15,0,8.35,EH,1712795278
515,kavaratti,10.5669,72.642,28.65,71,81,3.09,IN,1712795285
516,hasaki,35.7333,140.8333,17.38,57,29,3.81,JP,1712795276
517,chikhli,20.35,76.25,24.26,57,86,6.14,IN,1712795411
518,chapeco,-27.0964,-52.6183,22.86,100,75,2.57,BR,1712795139
519,yreka,41.7354,-122.6345,23.1,27,0,0.0,US,1712795411
520,mermoz boabab,14.7065,-17.4758,20.88,94,0,4.12,SN,1712795411
521,linhares,-19.3911,-40.0722,23.27,92,23,0.38,BR,1712795387
522,bikenibeu village,1.3673,173.1241,30.98,79,75,4.12,KI,1712795294
523,paithan,19.4833,75.3833,25.82,37,51,2.82,IN,1712795411
524,tralee,52.2704,-9.7026,12.13,93,92,3.84,IE,1712795229
525,kenai,60.5544,-151.2583,4.05,65,40,3.6,US,1712795306
526,uusikaupunki,60.8004,21.4084,3.62,74,9,8.1,FI,1712795402
527,forster,-32.1667,152.5167,19.62,66,92,6.2,AU,1712795412
528,lysianka,49.2523,30.8295,15.6,58,11,2.33,UA,1712795412
529,nouadhibou,20.931,-17.0347,18.99,82,0,5.66,MR,1712795412
530,pueblo,38.2545,-104.6091,17.97,20,0,5.14,US,1712795412
531,nabire,-3.3667,135.4833,24.61,95,100,1.3,ID,1712795412
532,geraldton,-28.7667,114.6,24.23,33,63,5.66,AU,1712795277
533,acajutla,13.5928,-89.8275,29.05,68,100,2.5,SV,1712795392
534,bajina basta,43.9708,19.5675,11.08,97,97,1.7,RS,1712795412
535,utete,-7.986,38.758,24.17,94,100,1.25,TZ,1712795412
536,suoyarvi,62.0833,32.35,4.29,91,100,6.52,RU,1712795237
537,shortandy,51.7006,70.9994,-0.08,93,100,4.82,KZ,1712795412
538,palapye,-22.546,27.1251,18.27,51,100,1.43,BW,1712795412
539,anavyssos,37.7333,23.95,19.55,48,4,3.69,GR,1712795210
540,illizi,26.4833,8.4667,26.89,15,81,5.44,DZ,1712795413
541,nueva gerona,21.8833,-82.8,26.24,84,26,5.89,CU,1712795413
542,midvagur,62.0511,-7.1939,7.46,87,100,10.8,FO,1712795413
543,adrar,20.5022,-10.0711,29.39,15,0,4.06,MR,1712795413
544,yeed,4.55,43.0333,27.38,69,7,5.81,SO,1712795413
545,slave lake,55.2834,-114.769,6.99,45,0,2.06,CA,1712795413
546,at taj,24.2049,23.2857,16.85,30,72,4.13,LY,1712795405
547,atasu,48.6814,71.6433,3.36,86,87,2.7,KZ,1712795413
548,belmonte,-15.8631,-38.8828,25.17,89,11,1.57,BR,1712795413
549,vryburg,-26.9566,24.7284,12.97,48,0,2.82,ZA,1712795227
550,taupo,-38.6833,176.0833,18.0,81,100,6.15,NZ,1712795413
551,sabang,5.8933,95.3214,29.54,71,100,6.11,ID,1712795413
552,tashtyp,52.7939,89.8983,3.94,92,100,3.12,RU,1712795413
553,diego martin,10.7005,-61.5342,25.64,75,4,4.0,TT,1712795413
554,arraial do cabo,-22.9661,-42.0278,25.26,87,0,5.72,BR,1712795413
555,domodossola,46.1165,8.2931,12.53,79,41,2.71,IT,1712795414
556,hirara,24.8,125.2833,23.15,88,75,4.63,JP,1712795414
557,mhamid,29.82,-5.72,21.25,16,0,2.16,MA,1712795414
558,undurkhaan,47.3194,110.6556,10.63,40,100,1.27,MN,1712795414
559,port douglas,-16.4833,145.4667,26.48,74,72,5.97,AU,1712795237
560,masterton,-40.9597,175.6575,22.28,40,100,5.85,NZ,1712795414
561,malango,-2.9627,119.9001,25.82,71,67,0.99,ID,1712795414
562,aioun,16.6614,-9.6149,33.29,29,63,0.7,MR,1712795270
563,san clemente del tuyu,-36.3569,-56.7235,12.21,61,41,5.05,AR,1712795220
564,troitskiy,57.0603,63.7481,-0.52,95,34,2.09,RU,1712795414
565,gulf shores,30.246,-87.7008,19.47,100,75,3.6,US,1712795301
